{
  "beaches": [
    {
      "name": "Millway Beach",
      "address": "120 Millway, Barnstable, MA 02630",
      "latitude": 41.7035,
      "longitude": -70.3018,
      "filters": {
        "petFriendly": true,
        "lifeguards": true,
        "waterSports": false,
        "softSand": true,
        "rockyShores": false,
        "quietSpots": true,
        "familyAreas": true,
        "picnicFacilities": true,
        "publicRestrooms": true,
        "boardwalks": false,
        "ampleParking": true,
        "sharkFree": true,
        "warmWater": false,
        "boatRamp": false
      },
      "region": "Mid-Cape",
      "town": "Barnstable"
    },
    {
      "name": "Craigville Beach",
      "address": "997 Craigville Beach Road, Centerville, MA 02632",
      "latitude": 41.6354,
      "longitude": -70.3365,
      "filters": {
        "petFriendly": false,
        "lifeguards": true,
        "waterSports": true,
        "softSand": true,
        "rockyShores": false,
        "quietSpots": false,
        "familyAreas": true,
        "picnicFacilities": true,
        "publicRestrooms": true,
        "boardwalks": false,
        "ampleParking": true,
        "sharkFree": true,
        "warmWater": false,
        "boatRamp": false
      },
      "region": "Mid-Cape",
      "town": "Barnstable"
    },
    {
      "name": "Covell's Beach",
      "address": "400 Ocean View Avenue, Centerville, MA 02632",
      "latitude": 41.6285,
      "longitude": -70.3405,
      "filters": {
        "petFriendly": false,
        "lifeguards": true,
        "waterSports": true,
        "softSand": true,
        "rockyShores": false,
        "quietSpots": false,
        "familyAreas": true,
        "picnicFacilities": true,
        "publicRestrooms": true,
        "boardwalks": false,
        "ampleParking": true,
        "sharkFree": true,
        "warmWater": false,
        "boatRamp": false
      },
      "region": "Mid-Cape",
      "town": "Barnstable"
    },
    {
      "name": "Kalmus Beach",
      "address": "670 Ocean Street, Hyannis, MA 02601",
      "latitude": 41.6393,
      "longitude": -70.2845,
      "filters": {
        "petFriendly": false,
        "lifeguards": true,
        "waterSports": true,
        "softSand": true,
        "rockyShores": false,
        "quietSpots": false,
        "familyAreas": true,
        "picnicFacilities": true,
        "publicRestrooms": true,
        "boardwalks": false,
        "ampleParking": true,
        "sharkFree": true,
        "warmWater": false,
        "boatRamp": true
      },
      "region": "Mid-Cape",
      "town": "Barnstable"
    },
    {
      "name": "Keyes Memorial Beach",
      "address": "175 Ocean Avenue, Hyannis, MA 02601",
      "latitude": 41.6355,
      "longitude": -70.2933,
      "filters": {
        "petFriendly": false,
        "lifeguards": true,
        "waterSports": false,
        "softSand": true,
        "rockyShores": false,
        "quietSpots": false,
        "familyAreas": true,
        "picnicFacilities": true,
        "publicRestrooms": true,
        "boardwalks": false,
        "ampleParking": true,
        "sharkFree": true,
        "warmWater": false,
        "boatRamp": false
      },
      "region": "Mid-Cape",
      "town": "Barnstable"
    },
    {
      "name": "Veterans Park Beach",
      "address": "480 Ocean Street, Hyannis, MA 02601",
      "latitude": 41.6429,
      "longitude": -70.2787,
      "filters": {
        "petFriendly": false,
        "lifeguards": true,
        "waterSports": false,
        "softSand": true,
        "rockyShores": false,
        "quietSpots": false,
        "familyAreas": true,
        "picnicFacilities": true,
        "publicRestrooms": true,
        "boardwalks": true,
        "ampleParking": true,
        "sharkFree": true,
        "warmWater": false,
        "boatRamp": false
      },
      "region": "Mid-Cape",
      "town": "Barnstable"
    },
    {
      "name": "Sea Street Beach",
      "address": "175 Sea Street, Hyannis, MA 02601",
      "latitude": 41.6382,
      "longitude": -70.2928,
      "filters": {
        "petFriendly": false,
        "lifeguards": false,
        "waterSports": false,
        "softSand": true,
        "rockyShores": false,
        "quietSpots": true,
        "familyAreas": true,
        "picnicFacilities": false,
        "publicRestrooms": false,
        "boardwalks": false,
        "ampleParking": false,
        "sharkFree": true,
        "warmWater": false,
        "boatRamp": false
      },
      "region": "Mid-Cape",
      "town": "Barnstable"
    },
    {
      "name": "Sandy Neck Beach",
      "address": "425 Sandy Neck Road, West Barnstable, MA 02668",
      "latitude": 41.7316,
      "longitude": -70.3662,
      "filters": {
        "petFriendly": true,
        "lifeguards": true,
        "waterSports": true,
        "softSand": true,
        "rockyShores": false,
        "quietSpots": true,
        "familyAreas": true,
        "picnicFacilities": true,
        "publicRestrooms": true,
        "boardwalks": false,
        "ampleParking": true,
        "sharkFree": true,
        "warmWater": false,
        "boatRamp": false
      },
      "region": "Mid-Cape",
      "town": "Barnstable"
    },
    {
      "name": "Dowses Beach",
      "address": "348 East Bay Road, Osterville, MA 02655",
      "latitude": 41.6172,
      "longitude": -70.3774,
      "filters": {
        "petFriendly": false,
        "lifeguards": true,
        "waterSports": false,
        "softSand": true,
        "rockyShores": false,
        "quietSpots": false,
        "familyAreas": true,
        "picnicFacilities": true,
        "publicRestrooms": true,
        "boardwalks": false,
        "ampleParking": true,
        "sharkFree": true,
        "warmWater": false,
        "boatRamp": false
      },
      "region": "Mid-Cape",
      "town": "Barnstable"
    },
    {
      "name": "Joshua's Pond Park",
      "address": "475 Falmouth Road, Osterville, MA 02655",
      "latitude": 41.6172,
      "longitude": -70.3774,
      "filters": {
        "petFriendly": true,
        "lifeguards": false,
        "waterSports": true,
        "softSand": false,
        "rockyShores": false,
        "quietSpots": true,
        "familyAreas": true,
        "picnicFacilities": true,
        "publicRestrooms": true,
        "boardwalks": false,
        "ampleParking": true,
        "sharkFree": true,
        "warmWater": true,
        "boatRamp": false
      },
      "region": "Mid-Cape",
      "town": "Barnstable"
    },
    {
      "name": "Loop Beach",
      "address": "Ocean View Avenue, Cotuit, MA 02635",
      "latitude": 41.6094,
      "longitude": -70.4289,
      "filters": {
        "petFriendly": false,
        "lifeguards": false,
        "waterSports": false,
        "softSand": true,
        "rockyShores": false,
        "quietSpots": true,
        "familyAreas": true,
        "picnicFacilities": false,
        "publicRestrooms": false,
        "boardwalks": false,
        "ampleParking": false,
        "sharkFree": true,
        "warmWater": false,
        "boatRamp": false
      },
      "region": "Mid-Cape",
      "town": "Barnstable"
    },
    {
      "name": "Oregon Beach",
      "address": "Oregon Way, Cotuit, MA 02635",
      "latitude": 41.6175,
      "longitude": -70.4328,
      "filters": {
        "petFriendly": false,
        "lifeguards": false,
        "waterSports": false,
        "softSand": true,
        "rockyShores": false,
        "quietSpots": true,
        "familyAreas": true,
        "picnicFacilities": false,
        "publicRestrooms": false,
        "boardwalks": false,
        "ampleParking": false,
        "sharkFree": true,
        "warmWater": false,
        "boatRamp": false
      },
      "region": "Mid-Cape",
      "town": "Barnstable"
    },
    {
      "name": "Ropes Beach",
      "address": "Old Shore Road, Cotuit, MA 02635",
      "latitude": 41.6094,
      "longitude": -70.4289,
      "filters": {
        "petFriendly": false,
        "lifeguards": false,
        "waterSports": false,
        "softSand": true,
        "rockyShores": false,
        "quietSpots": true,
        "familyAreas": true,
        "picnicFacilities": false,
        "publicRestrooms": false,
        "boardwalks": false,
        "ampleParking": false,
        "sharkFree": true,
        "warmWater": false,
        "boatRamp": true
      },
      "region": "Mid-Cape",
      "town": "Barnstable"
    },
    {
      "name": "Hamblin's Pond",
      "address": "Route 149, Marstons Mills, MA 02648",
      "latitude": 41.6483,
      "longitude": -70.4191,
      "filters": {
        "petFriendly": false,
        "lifeguards": false,
        "waterSports": false,
        "softSand": true,
        "rockyShores": false,
        "quietSpots": true,
        "familyAreas": true,
        "picnicFacilities": true,
        "publicRestrooms": false,
        "boardwalks": false,
        "ampleParking": true,
        "sharkFree": true,
        "warmWater": true,
        "boatRamp": false
      },
      "region": "Mid-Cape",
      "town": "Barnstable"
    },
    {
      "name": "Long Beach",
      "address": "20 Long Beach Road, Centerville, MA 02632",
      "latitude": 41.62,
      "longitude": -70.3522,
      "filters": {
        "petFriendly": false,
        "lifeguards": true,
        "waterSports": false,
        "softSand": true,
        "rockyShores": false,
        "quietSpots": true,
        "familyAreas": true,
        "picnicFacilities": false,
        "publicRestrooms": true,
        "boardwalks": false,
        "ampleParking": true,
        "sharkFree": true,
        "warmWater": false,
        "boatRamp": false
      },
      "region": "Mid-Cape",
      "town": "Barnstable"
    },
    {
      "name": "Wequaquet Lake Beach",
      "address": "Shootflying Hill Road, Centerville, MA 02632",
      "latitude": 41.6547,
      "longitude": -70.3652,
      "filters": {
        "petFriendly": false,
        "lifeguards": true,
        "waterSports": true,
        "softSand": true,
        "rockyShores": false,
        "quietSpots": false,
        "familyAreas": true,
        "picnicFacilities": true,
        "publicRestrooms": true,
        "boardwalks": false,
        "ampleParking": true,
        "sharkFree": true,
        "warmWater": true,
        "boatRamp": true
      },
      "region": "Mid-Cape",
      "town": "Barnstable"
    },
    {
      "name": "Old Silver Beach",
      "address": "Quaker Road, North Falmouth, MA 02556",
      "latitude": 41.6128,
      "longitude": -70.6307,
      "filters": {
        "petFriendly": false,
        "lifeguards": true,
        "waterSports": true,
        "softSand": true,
        "rockyShores": false,
        "quietSpots": false,
        "familyAreas": true,
        "picnicFacilities": true,
        "publicRestrooms": true,
        "boardwalks": false,
        "ampleParking": true,
        "sharkFree": true,
        "warmWater": false,
        "boatRamp": false
      },
      "region": "Upper Cape",
      "town": "Falmouth"
    },
    {
      "name": "Chapoquoit Beach",
      "address": "Chapoquoit Road, West Falmouth, MA 02574",
      "latitude": 41.5585,
      "longitude": -70.653,
      "filters": {
        "petFriendly": false,
        "lifeguards": true,
        "waterSports": true,
        "softSand": true,
        "rockyShores": false,
        "quietSpots": true,
        "familyAreas": true,
        "picnicFacilities": false,
        "publicRestrooms": false,
        "boardwalks": false,
        "ampleParking": true,
        "sharkFree": true,
        "warmWater": false,
        "boatRamp": false
      },
      "region": "Upper Cape",
      "town": "Falmouth"
    },
    {
      "name": "Megansett Beach",
      "address": "Megansett Road, North Falmouth, MA 02556",
      "latitude": 41.6285,
      "longitude": -70.6419,
      "filters": {
        "petFriendly": false,
        "lifeguards": true,
        "waterSports": true,
        "softSand": true,
        "rockyShores": false,
        "quietSpots": false,
        "familyAreas": true,
        "picnicFacilities": true,
        "publicRestrooms": true,
        "boardwalks": false,
        "ampleParking": true,
        "sharkFree": true,
        "warmWater": false,
        "boatRamp": false
      },
      "region": "Upper Cape",
      "town": "Falmouth"
    },
    {
      "name": "Stony Beach",
      "address": "Chapoquoit Road, West Falmouth, MA 02574",
      "latitude": 41.5563,
      "longitude": -70.6522,
      "filters": {
        "petFriendly": false,
        "lifeguards": false,
        "waterSports": false,
        "softSand": true,
        "rockyShores": true,
        "quietSpots": true,
        "familyAreas": false,
        "picnicFacilities": false,
        "publicRestrooms": false,
        "boardwalks": false,
        "ampleParking": false,
        "sharkFree": true,
        "warmWater": false,
        "boatRamp": false
      },
      "region": "Upper Cape",
      "town": "Falmouth"
    },
    {
      "name": "Wood Neck Beach",
      "address": "Sippewissett Road, Falmouth, MA 02540",
      "latitude": 41.5467,
      "longitude": -70.6285,
      "filters": {
        "petFriendly": true,
        "lifeguards": true,
        "waterSports": false,
        "softSand": true,
        "rockyShores": false,
        "quietSpots": true,
        "familyAreas": true,
        "picnicFacilities": true,
        "publicRestrooms": true,
        "boardwalks": false,
        "ampleParking": true,
        "sharkFree": true,
        "warmWater": false,
        "boatRamp": false
      },
      "region": "Upper Cape",
      "town": "Falmouth"
    },
    {
      "name": "Falmouth Heights Beach",
      "address": "Grand Avenue, Falmouth, MA 02540",
      "latitude": 41.5467,
      "longitude": -70.5989,
      "filters": {
        "petFriendly": false,
        "lifeguards": true,
        "waterSports": false,
        "softSand": true,
        "rockyShores": false,
        "quietSpots": false,
        "familyAreas": true,
        "picnicFacilities": true,
        "publicRestrooms": true,
        "boardwalks": true,
        "ampleParking": true,
        "sharkFree": true,
        "warmWater": false,
        "boatRamp": false
      },
      "region": "Upper Cape",
      "town": "Falmouth"
    },
    {
      "name": "Surf Drive Beach",
      "address": "Surf Drive, Falmouth, MA 02540",
      "latitude": 41.5428,
      "longitude": -70.5955,
      "filters": {
        "petFriendly": false,
        "lifeguards": true,
        "waterSports": true,
        "softSand": true,
        "rockyShores": false,
        "quietSpots": false,
        "familyAreas": true,
        "picnicFacilities": true,
        "publicRestrooms": true,
        "boardwalks": false,
        "ampleParking": true,
        "sharkFree": true,
        "warmWater": false,
        "boatRamp": false
      },
      "region": "Upper Cape",
      "town": "Falmouth"
    },
    {
      "name": "Bristol Beach",
      "address": "Maravista Avenue, Falmouth, MA 02540",
      "latitude": 41.5428,
      "longitude": -70.5955,
      "filters": {
        "petFriendly": false,
        "lifeguards": false,
        "waterSports": false,
        "softSand": true,
        "rockyShores": false,
        "quietSpots": true,
        "familyAreas": true,
        "picnicFacilities": true,
        "publicRestrooms": false,
        "boardwalks": false,
        "ampleParking": false,
        "sharkFree": true,
        "warmWater": false,
        "boatRamp": false
      },
      "region": "Upper Cape",
      "town": "Falmouth"
    },
    {
      "name": "Menauhant Beach",
      "address": "Menauhant Road, East Falmouth, MA 02536",
      "latitude": 41.5675,
      "longitude": -70.5653,
      "filters": {
        "petFriendly": false,
        "lifeguards": true,
        "waterSports": false,
        "softSand": true,
        "rockyShores": false,
        "quietSpots": false,
        "familyAreas": true,
        "picnicFacilities": true,
        "publicRestrooms": true,
        "boardwalks": false,
        "ampleParking": true,
        "sharkFree": true,
        "warmWater": false,
        "boatRamp": false
      },
      "region": "Upper Cape",
      "town": "Falmouth"
    },
    {
      "name": "Grews Pond Beach",
      "address": "Gifford Street, Falmouth, MA 02540",
      "latitude": 41.5467,
      "longitude": -70.6285,
      "filters": {
        "petFriendly": false,
        "lifeguards": false,
        "waterSports": false,
        "softSand": true,
        "rockyShores": false,
        "quietSpots": true,
        "familyAreas": true,
        "picnicFacilities": false,
        "publicRestrooms": false,
        "boardwalks": false,
        "ampleParking": false,
        "sharkFree": true,
        "warmWater": true,
        "boatRamp": false
      },
      "region": "Upper Cape",
      "town": "Falmouth"
    },
    {
      "name": "Cahoon Hollow Beach",
      "address": "Cahoon Hollow Road, Wellfleet, MA 02667",
      "latitude": 41.9289,
      "longitude": -69.9597,
      "filters": {
        "petFriendly": false,
        "lifeguards": true,
        "waterSports": true,
        "softSand": true,
        "rockyShores": false,
        "quietSpots": false,
        "familyAreas": true,
        "picnicFacilities": true,
        "publicRestrooms": true,
        "boardwalks": false,
        "ampleParking": true,
        "sharkFree": false,
        "warmWater": false,
        "boatRamp": false
      },
      "region": "Outer Cape",
      "town": "Wellfleet"
    },
    {
      "name": "Newcomb Hollow Beach",
      "address": "Newcomb Hollow Road, Wellfleet, MA 02667",
      "latitude": 41.9358,
      "longitude": -69.9669,
      "filters": {
        "petFriendly": false,
        "lifeguards": true,
        "waterSports": true,
        "softSand": true,
        "rockyShores": false,
        "quietSpots": false,
        "familyAreas": true,
        "picnicFacilities": true,
        "publicRestrooms": true,
        "boardwalks": false,
        "ampleParking": true,
        "sharkFree": false,
        "warmWater": false,
        "boatRamp": false
      },
      "region": "Outer Cape",
      "town": "Wellfleet"
    },
    {
      "name": "White Crest Beach",
      "address": "Ocean View Drive, Wellfleet, MA 02667",
      "latitude": 41.9247,
      "longitude": -69.9544,
      "filters": {
        "petFriendly": false,
        "lifeguards": true,
        "waterSports": true,
        "softSand": true,
        "rockyShores": false,
        "quietSpots": false,
        "familyAreas": true,
        "picnicFacilities": true,
        "publicRestrooms": true,
        "boardwalks": false,
        "ampleParking": true,
        "sharkFree": false,
        "warmWater": false,
        "boatRamp": false
      },
      "region": "Outer Cape",
      "town": "Wellfleet"
    },
    {
      "name": "Marconi Beach",
      "address": "Marconi Beach Road, Wellfleet, MA 02667",
      "latitude": 41.8971,
      "longitude": -69.9747,
      "filters": {
        "petFriendly": false,
        "lifeguards": true,
        "waterSports": true,
        "softSand": true,
        "rockyShores": false,
        "quietSpots": false,
        "familyAreas": true,
        "picnicFacilities": true,
        "publicRestrooms": true,
        "boardwalks": false,
        "ampleParking": true,
        "sharkFree": false,
        "warmWater": false,
        "boatRamp": false
      },
      "region": "Outer Cape",
      "town": "Wellfleet"
    },
    {
      "name": "Lecount Hollow Beach",
      "address": "Lecount Hollow Road, Wellfleet, MA 02667",
      "latitude": 41.9161,
      "longitude": -69.9769,
      "filters": {
        "petFriendly": false,
        "lifeguards": true,
        "waterSports": true,
        "softSand": true,
        "rockyShores": false,
        "quietSpots": false,
        "familyAreas": true,
        "picnicFacilities": true,
        "publicRestrooms": true,
        "boardwalks": false,
        "ampleParking": true,
        "sharkFree": false,
        "warmWater": false,
        "boatRamp": false
      },
      "region": "Outer Cape",
      "town": "Wellfleet"
    },
    {
      "name": "Maguire Landing Beach",
      "address": "Chequessett Neck Road, Wellfleet, MA 02667",
      "latitude": 41.9297,
      "longitude": -70.0619,
      "filters": {
        "petFriendly": false,
        "lifeguards": false,
        "waterSports": false,
        "softSand": false,
        "rockyShores": false,
        "quietSpots": true,
        "familyAreas": false,
        "picnicFacilities": false,
        "publicRestrooms": false,
        "boardwalks": false,
        "ampleParking": false,
        "sharkFree": true,
        "warmWater": true,
        "boatRamp": true
      },
      "region": "Outer Cape",
      "town": "Wellfleet"
    },
    {
      "name": "Hardings Beach",
      "address": "Hardings Beach Road, Chatham, MA 02633",
      "latitude": 41.6798,
      "longitude": -69.9619,
      "filters": {
        "petFriendly": false,
        "lifeguards": true,
        "waterSports": false,
        "softSand": true,
        "rockyShores": false,
        "quietSpots": false,
        "familyAreas": true,
        "picnicFacilities": true,
        "publicRestrooms": true,
        "boardwalks": false,
        "ampleParking": true,
        "sharkFree": false,
        "warmWater": false,
        "boatRamp": false
      },
      "region": "Lower Cape",
      "town": "Chatham"
    },
    {
      "name": "Lighthouse Beach",
      "address": "Main Street, Chatham, MA 02633",
      "latitude": 41.6703,
      "longitude": -69.9479,
      "filters": {
        "petFriendly": false,
        "lifeguards": true,
        "waterSports": false,
        "softSand": true,
        "rockyShores": false,
        "quietSpots": false,
        "familyAreas": true,
        "picnicFacilities": true,
        "publicRestrooms": true,
        "boardwalks": false,
        "ampleParking": true,
        "sharkFree": false,
        "warmWater": false,
        "boatRamp": false
      },
      "region": "Lower Cape",
      "town": "Chatham"
    },
    {
      "name": "Cockle Cove Beach",
      "address": "Cockle Cove Road, Chatham, MA 02633",
      "latitude": 41.6525,
      "longitude": -69.9802,
      "filters": {
        "petFriendly": false,
        "lifeguards": true,
        "waterSports": false,
        "softSand": true,
        "rockyShores": false,
        "quietSpots": true,
        "familyAreas": true,
        "picnicFacilities": true,
        "publicRestrooms": true,
        "boardwalks": false,
        "ampleParking": true,
        "sharkFree": false,
        "warmWater": false,
        "boatRamp": false
      },
      "region": "Lower Cape",
      "town": "Chatham"
    },
    {
      "name": "Ridgevale Beach",
      "address": "Ridgevale Road, Chatham, MA 02633",
      "latitude": 41.6653,
      "longitude": -69.973,
      "filters": {
        "petFriendly": false,
        "lifeguards": true,
        "waterSports": false,
        "softSand": true,
        "rockyShores": false,
        "quietSpots": false,
        "familyAreas": true,
        "picnicFacilities": true,
        "publicRestrooms": true,
        "boardwalks": false,
        "ampleParking": true,
        "sharkFree": false,
        "warmWater": false,
        "boatRamp": false
      },
      "region": "Lower Cape",
      "town": "Chatham"
    },
    {
      "name": "Oyster Pond Beach",
      "address": "Stage Harbor Road, Chatham, MA 02633",
      "latitude": 41.6707,
      "longitude": -69.9651,
      "filters": {
        "petFriendly": false,
        "lifeguards": false,
        "waterSports": false,
        "softSand": false,
        "rockyShores": false,
        "quietSpots": true,
        "familyAreas": false,
        "picnicFacilities": false,
        "publicRestrooms": false,
        "boardwalks": false,
        "ampleParking": false,
        "sharkFree": true,
        "warmWater": true,
        "boatRamp": false
      },
      "region": "Lower Cape",
      "town": "Chatham"
    },
    {
      "name": "Pleasant Street Beach",
      "address": "Pleasant Street, Chatham, MA 02633",
      "latitude": 41.6868,
      "longitude": -69.9547,
      "filters": {
        "petFriendly": false,
        "lifeguards": false,
        "waterSports": false,
        "softSand": false,
        "rockyShores": true,
        "quietSpots": true,
        "familyAreas": false,
        "picnicFacilities": false,
        "publicRestrooms": false,
        "boardwalks": false,
        "ampleParking": false,
        "sharkFree": true,
        "warmWater": false,
        "boatRamp": false
      },
      "region": "Lower Cape",
      "town": "Chatham"
    },
    {
      "name": "Seagull Beach",
      "address": "Seagull Road, West Yarmouth, MA 02673",
      "latitude": 41.6387,
      "longitude": -70.2358,
      "filters": {
        "petFriendly": false,
        "lifeguards": true,
        "waterSports": false,
        "softSand": true,
        "rockyShores": false,
        "quietSpots": false,
        "familyAreas": true,
        "picnicFacilities": true,
        "publicRestrooms": true,
        "boardwalks": false,
        "ampleParking": true,
        "sharkFree": true,
        "warmWater": true,
        "boatRamp": false
      },
      "region": "Mid-Cape",
      "town": "Yarmouth"
    },
    {
      "name": "Parker's River Beach",
      "address": "South Shore Drive, South Yarmouth, MA 02664",
      "latitude": 41.6588,
      "longitude": -70.1898,
      "filters": {
        "petFriendly": false,
        "lifeguards": true,
        "waterSports": false,
        "softSand": true,
        "rockyShores": false,
        "quietSpots": true,
        "familyAreas": true,
        "picnicFacilities": true,
        "publicRestrooms": true,
        "boardwalks": false,
        "ampleParking": true,
        "sharkFree": true,
        "warmWater": true,
        "boatRamp": false
      },
      "region": "Mid-Cape",
      "town": "Yarmouth"
    },
    {
      "name": "Smuggler's Beach",
      "address": "South Shore Drive, South Yarmouth, MA 02664",
      "latitude": 41.6543,
      "longitude": -70.1848,
      "filters": {
        "petFriendly": false,
        "lifeguards": false,
        "waterSports": false,
        "softSand": true,
        "rockyShores": false,
        "quietSpots": true,
        "familyAreas": false,
        "picnicFacilities": false,
        "publicRestrooms": false,
        "boardwalks": false,
        "ampleParking": false,
        "sharkFree": true,
        "warmWater": true,
        "boatRamp": false
      },
      "region": "Mid-Cape",
      "town": "Yarmouth"
    },
    {
      "name": "Bass River Beach",
      "address": "Smugglers Beach Road, South Yarmouth, MA 02664",
      "latitude": 41.6498,
      "longitude": -70.1808,
      "filters": {
        "petFriendly": false,
        "lifeguards": true,
        "waterSports": false,
        "softSand": true,
        "rockyShores": false,
        "quietSpots": false,
        "familyAreas": true,
        "picnicFacilities": true,
        "publicRestrooms": true,
        "boardwalks": false,
        "ampleParking": true,
        "sharkFree": true,
        "warmWater": true,
        "boatRamp": false
      },
      "region": "Mid-Cape",
      "town": "Yarmouth"
    },
    {
      "name": "Herring Cove Beach",
      "address": "Province Lands Road, Provincetown, MA 02657",
      "latitude": 42.0697,
      "longitude": -70.2191,
      "filters": {
        "petFriendly": true,
        "lifeguards": true,
        "waterSports": false,
        "softSand": true,
        "rockyShores": false,
        "quietSpots": true,
        "familyAreas": true,
        "picnicFacilities": true,
        "publicRestrooms": true,
        "boardwalks": false,
        "ampleParking": true,
        "sharkFree": false,
        "warmWater": true,
        "boatRamp": false
      },
      "region": "Outer Cape",
      "town": "Provincetown"
    },
    {
      "name": "Race Point Beach",
      "address": "Race Point Road, Provincetown, MA 02657",
      "latitude": 42.0653,
      "longitude": -70.2419,
      "filters": {
        "petFriendly": true,
        "lifeguards": true,
        "waterSports": true,
        "softSand": true,
        "rockyShores": false,
        "quietSpots": false,
        "familyAreas": true,
        "picnicFacilities": true,
        "publicRestrooms": true,
        "boardwalks": false,
        "ampleParking": true,
        "sharkFree": false,
        "warmWater": false,
        "boatRamp": false
      },
      "region": "Outer Cape",
      "town": "Provincetown"
    },
    {
      "name": "Provincetown Harbor Beach",
      "address": "Commercial Street, Provincetown, MA 02657",
      "latitude": 42.0492,
      "longitude": -70.1855,
      "filters": {
        "petFriendly": false,
        "lifeguards": false,
        "waterSports": false,
        "softSand": false,
        "rockyShores": false,
        "quietSpots": false,
        "familyAreas": false,
        "picnicFacilities": false,
        "publicRestrooms": true,
        "boardwalks": true,
        "ampleParking": false,
        "sharkFree": true,
        "warmWater": true,
        "boatRamp": false
      },
      "region": "Outer Cape",
      "town": "Provincetown"
    },
    {
      "name": "Long Point Beach",
      "address": "Long Point, Provincetown, MA 02657",
      "latitude": 42.0299,
      "longitude": -70.2151,
      "filters": {
        "petFriendly": true,
        "lifeguards": false,
        "waterSports": false,
        "softSand": true,
        "rockyShores": false,
        "quietSpots": true,
        "familyAreas": false,
        "picnicFacilities": false,
        "publicRestrooms": false,
        "boardwalks": false,
        "ampleParking": false,
        "sharkFree": false,
        "warmWater": true,
        "boatRamp": false
      },
      "region": "Outer Cape",
      "town": "Provincetown"
    },
    {
      "name": "Monument Beach",
      "address": "Shore Road, Bourne, MA 02532",
      "latitude": 41.7409,
      "longitude": -70.6151,
      "filters": {
        "petFriendly": false,
        "lifeguards": true,
        "waterSports": false,
        "softSand": true,
        "rockyShores": false,
        "quietSpots": false,
        "familyAreas": true,
        "picnicFacilities": true,
        "publicRestrooms": true,
        "boardwalks": false,
        "ampleParking": true,
        "sharkFree": true,
        "warmWater": true,
        "boatRamp": false
      },
      "region": "Upper Cape",
      "town": "Bourne"
    },
    {
      "name": "Sagamore Beach",
      "address": "Sagamore Road, Sagamore Beach, MA 02562",
      "latitude": 41.7865,
      "longitude": -70.5334,
      "filters": {
        "petFriendly": false,
        "lifeguards": true,
        "waterSports": false,
        "softSand": true,
        "rockyShores": false,
        "quietSpots": true,
        "familyAreas": true,
        "picnicFacilities": true,
        "publicRestrooms": true,
        "boardwalks": false,
        "ampleParking": true,
        "sharkFree": true,
        "warmWater": true,
        "boatRamp": false
      },
      "region": "Upper Cape",
      "town": "Bourne"
    },
    {
      "name": "Mashnee Island Beach",
      "address": "Mashnee Road, Bourne, MA 02532",
      "latitude": 41.7236,
      "longitude": -70.6289,
      "filters": {
        "petFriendly": true,
        "lifeguards": false,
        "waterSports": false,
        "softSand": true,
        "rockyShores": false,
        "quietSpots": true,
        "familyAreas": false,
        "picnicFacilities": false,
        "publicRestrooms": false,
        "boardwalks": false,
        "ampleParking": false,
        "sharkFree": true,
        "warmWater": true,
        "boatRamp": false
      },
      "region": "Upper Cape",
      "town": "Bourne"
    },
    {
      "name": "Scusset Beach State Reservation",
      "address": "20 Scusset Beach Road, Sagamore Beach, MA 02562",
      "latitude": 41.7931,
      "longitude": -70.4968,
      "filters": {
        "petFriendly": true,
        "lifeguards": true,
        "waterSports": false,
        "softSand": true,
        "rockyShores": false,
        "quietSpots": false,
        "familyAreas": true,
        "picnicFacilities": true,
        "publicRestrooms": true,
        "boardwalks": false,
        "ampleParking": true,
        "sharkFree": true,
        "warmWater": true,
        "boatRamp": true
      },
      "region": "Upper Cape",
      "town": "Bourne"
    },
    {
      "name": "Town Neck Beach",
      "address": "Town Neck Road, Sandwich, MA 02563",
      "latitude": 41.7569,
      "longitude": -70.4882,
      "filters": {
        "petFriendly": true,
        "lifeguards": true,
        "waterSports": false,
        "softSand": true,
        "rockyShores": false,
        "quietSpots": false,
        "familyAreas": true,
        "picnicFacilities": true,
        "publicRestrooms": true,
        "boardwalks": true,
        "ampleParking": true,
        "sharkFree": true,
        "warmWater": true,
        "boatRamp": false
      },
      "region": "Upper Cape",
      "town": "Sandwich"
    },
    {
      "name": "East Sandwich Beach",
      "address": "North Shore Boulevard, East Sandwich, MA 02537",
      "latitude": 41.7473,
      "longitude": -70.414,
      "filters": {
        "petFriendly": false,
        "lifeguards": true,
        "waterSports": false,
        "softSand": true,
        "rockyShores": false,
        "quietSpots": true,
        "familyAreas": true,
        "picnicFacilities": true,
        "publicRestrooms": true,
        "boardwalks": false,
        "ampleParking": true,
        "sharkFree": true,
        "warmWater": true,
        "boatRamp": false
      },
      "region": "Upper Cape",
      "town": "Sandwich"
    },
    {
      "name": "Sandy Neck Beach",
      "address": "425 Sandy Neck Road, West Barnstable, MA 02668",
      "latitude": 41.7286,
      "longitude": -70.3669,
      "filters": {
        "petFriendly": true,
        "lifeguards": true,
        "waterSports": false,
        "softSand": true,
        "rockyShores": false,
        "quietSpots": true,
        "familyAreas": true,
        "picnicFacilities": true,
        "publicRestrooms": true,
        "boardwalks": false,
        "ampleParking": true,
        "sharkFree": true,
        "warmWater": true,
        "boatRamp": true
      },
      "region": "Upper Cape",
      "town": "Sandwich"
    },
    {
      "name": "Coast Guard Beach",
      "address": "Ocean View Drive, Eastham, MA 02642",
      "latitude": 41.84,
      "longitude": -69.9405,
      "filters": {
        "petFriendly": false,
        "lifeguards": true,
        "waterSports": false,
        "softSand": true,
        "rockyShores": false,
        "quietSpots": false,
        "familyAreas": true,
        "picnicFacilities": true,
        "publicRestrooms": true,
        "boardwalks": true,
        "ampleParking": false,
        "sharkFree": false,
        "warmWater": false,
        "boatRamp": false
      },
      "region": "Outer Cape",
      "town": "Eastham"
    },
    {
      "name": "Nauset Light Beach",
      "address": "Ocean View Drive, Eastham, MA 02642",
      "latitude": 41.8599,
      "longitude": -69.9462,
      "filters": {
        "petFriendly": false,
        "lifeguards": true,
        "waterSports": false,
        "softSand": true,
        "rockyShores": false,
        "quietSpots": true,
        "familyAreas": true,
        "picnicFacilities": true,
        "publicRestrooms": true,
        "boardwalks": false,
        "ampleParking": true,
        "sharkFree": false,
        "warmWater": false,
        "boatRamp": false
      },
      "region": "Outer Cape",
      "town": "Eastham"
    },
    {
      "name": "First Encounter Beach",
      "address": "Samoset Road, Eastham, MA 02642",
      "latitude": 41.8639,
      "longitude": -69.9759,
      "filters": {
        "petFriendly": true,
        "lifeguards": true,
        "waterSports": false,
        "softSand": false,
        "rockyShores": false,
        "quietSpots": true,
        "familyAreas": true,
        "picnicFacilities": true,
        "publicRestrooms": true,
        "boardwalks": false,
        "ampleParking": true,
        "sharkFree": true,
        "warmWater": true,
        "boatRamp": true
      },
      "region": "Outer Cape",
      "town": "Eastham"
    },
    {
      "name": "Campground Beach",
      "address": "700 Doane Road, Eastham, MA 02642",
      "latitude": 41.8486,
      "longitude": -69.9782,
      "filters": {
        "petFriendly": false,
        "lifeguards": false,
        "waterSports": false,
        "softSand": false,
        "rockyShores": true,
        "quietSpots": true,
        "familyAreas": false,
        "picnicFacilities": false,
        "publicRestrooms": false,
        "boardwalks": false,
        "ampleParking": false,
        "sharkFree": true,
        "warmWater": true,
        "boatRamp": false
      },
      "region": "Outer Cape",
      "town": "Eastham"
    },
    {
      "name": "Bank Street Beach",
      "address": "Bank Street, Harwich Port, MA 02646",
      "latitude": 41.6667,
      "longitude": -70.0667,
      "filters": {
        "petFriendly": false,
        "lifeguards": true,
        "waterSports": false,
        "softSand": true,
        "rockyShores": false,
        "quietSpots": false,
        "familyAreas": true,
        "picnicFacilities": false,
        "publicRestrooms": true,
        "boardwalks": false,
        "ampleParking": true,
        "sharkFree": true,
        "warmWater": true,
        "boatRamp": false
      },
      "region": "Lower Cape",
      "town": "Harwich"
    },
    {
      "name": "Red River Beach",
      "address": "Uncle Venies Road, Harwich, MA 02671",
      "latitude": 41.6976,
      "longitude": -70.0064,
      "filters": {
        "petFriendly": false,
        "lifeguards": true,
        "waterSports": false,
        "softSand": true,
        "rockyShores": false,
        "quietSpots": false,
        "familyAreas": true,
        "picnicFacilities": true,
        "publicRestrooms": true,
        "boardwalks": false,
        "ampleParking": true,
        "sharkFree": true,
        "warmWater": true,
        "boatRamp": false
      },
      "region": "Lower Cape",
      "town": "Harwich"
    },
    {
      "name": "Pleasant Road Beach",
      "address": "Pleasant Road, Harwich Port, MA 02646",
      "latitude": 41.6703,
      "longitude": -70.0605,
      "filters": {
        "petFriendly": false,
        "lifeguards": true,
        "waterSports": false,
        "softSand": true,
        "rockyShores": false,
        "quietSpots": false,
        "familyAreas": true,
        "picnicFacilities": true,
        "publicRestrooms": true,
        "boardwalks": false,
        "ampleParking": true,
        "sharkFree": true,
        "warmWater": true,
        "boatRamp": true
      },
      "region": "Lower Cape",
      "town": "Harwich"
    },
    {
      "name": "Breakwater Beach",
      "address": "Breakwater Road, Brewster, MA 02631",
      "latitude": 41.7528,
      "longitude": -70.0819,
      "filters": {
        "petFriendly": false,
        "lifeguards": true,
        "waterSports": false,
        "softSand": true,
        "rockyShores": false,
        "quietSpots": false,
        "familyAreas": true,
        "picnicFacilities": false,
        "publicRestrooms": true,
        "boardwalks": false,
        "ampleParking": true,
        "sharkFree": true,
        "warmWater": true,
        "boatRamp": false
      },
      "region": "Lower Cape",
      "town": "Brewster"
    },
    {
      "name": "Crosby Landing Beach",
      "address": "Crosby Lane, Brewster, MA 02631",
      "latitude": 41.7344,
      "longitude": -70.0925,
      "filters": {
        "petFriendly": false,
        "lifeguards": true,
        "waterSports": false,
        "softSand": true,
        "rockyShores": false,
        "quietSpots": false,
        "familyAreas": true,
        "picnicFacilities": false,
        "publicRestrooms": true,
        "boardwalks": false,
        "ampleParking": true,
        "sharkFree": true,
        "warmWater": true,
        "boatRamp": false
      },
      "region": "Lower Cape",
      "town": "Brewster"
    },
    {
      "name": "Paines Creek Beach",
      "address": "Paines Creek Road, Brewster, MA 02631",
      "latitude": 41.7247,
      "longitude": -70.1008,
      "filters": {
        "petFriendly": false,
        "lifeguards": false,
        "waterSports": false,
        "softSand": true,
        "rockyShores": false,
        "quietSpots": true,
        "familyAreas": true,
        "picnicFacilities": false,
        "publicRestrooms": false,
        "boardwalks": false,
        "ampleParking": true,
        "sharkFree": true,
        "warmWater": true,
        "boatRamp": false
      },
      "region": "Lower Cape",
      "town": "Brewster"
    },
    {
      "name": "Linnell Landing Beach",
      "address": "Linnell Landing Road, Brewster, MA 02631",
      "latitude": 41.7583,
      "longitude": -70.0744,
      "filters": {
        "petFriendly": false,
        "lifeguards": false,
        "waterSports": false,
        "softSand": true,
        "rockyShores": false,
        "quietSpots": true,
        "familyAreas": false,
        "picnicFacilities": false,
        "publicRestrooms": false,
        "boardwalks": false,
        "ampleParking": false,
        "sharkFree": true,
        "warmWater": true,
        "boatRamp": false
      },
      "region": "Lower Cape",
      "town": "Brewster"
    },
    {
      "name": "Nauset Beach",
      "address": "Beach Road, Orleans, MA 02653",
      "latitude": 41.7844,
      "longitude": -69.9497,
      "filters": {
        "petFriendly": false,
        "lifeguards": true,
        "waterSports": true,
        "softSand": true,
        "rockyShores": false,
        "quietSpots": false,
        "familyAreas": true,
        "picnicFacilities": true,
        "publicRestrooms": true,
        "boardwalks": false,
        "ampleParking": true,
        "sharkFree": false,
        "warmWater": true,
        "boatRamp": false
      },
      "region": "Lower Cape",
      "town": "Orleans"
    },
    {
      "name": "Skaket Beach",
      "address": "Skaket Beach Road, Orleans, MA 02653",
      "latitude": 41.7667,
      "longitude": -70.0167,
      "filters": {
        "petFriendly": false,
        "lifeguards": true,
        "waterSports": false,
        "softSand": true,
        "rockyShores": false,
        "quietSpots": false,
        "familyAreas": true,
        "picnicFacilities": true,
        "publicRestrooms": true,
        "boardwalks": false,
        "ampleParking": true,
        "sharkFree": true,
        "warmWater": true,
        "boatRamp": false
      },
      "region": "Lower Cape",
      "town": "Orleans"
    },
    {
      "name": "Pilgrim Lake Beach",
      "address": "Herringbrook Road, Orleans, MA 02653",
      "latitude": 41.7875,
      "longitude": -70.0247,
      "filters": {
        "petFriendly": false,
        "lifeguards": false,
        "waterSports": false,
        "softSand": true,
        "rockyShores": false,
        "quietSpots": true,
        "familyAreas": true,
        "picnicFacilities": true,
        "publicRestrooms": false,
        "boardwalks": false,
        "ampleParking": false,
        "sharkFree": true,
        "warmWater": true,
        "boatRamp": false
      },
      "region": "Lower Cape",
      "town": "Orleans"
    },
    {
      "name": "Rock Harbor Beach",
      "address": "Rock Harbor Road, Orleans, MA 02653",
      "latitude": 41.7958,
      "longitude": -70.0064,
      "filters": {
        "petFriendly": false,
        "lifeguards": false,
        "waterSports": false,
        "softSand": false,
        "rockyShores": true,
        "quietSpots": true,
        "familyAreas": false,
        "picnicFacilities": false,
        "publicRestrooms": false,
        "boardwalks": false,
        "ampleParking": true,
        "sharkFree": true,
        "warmWater": true,
        "boatRamp": true
      },
      "region": "Lower Cape",
      "town": "Orleans"
    },
    {
      "name": "Ballston Beach",
      "address": "South Pamet Road, Truro, MA 02666",
      "latitude": 41.9922,
      "longitude": -70.0378,
      "filters": {
        "petFriendly": false,
        "lifeguards": false,
        "waterSports": true,
        "softSand": true,
        "rockyShores": false,
        "quietSpots": true,
        "familyAreas": false,
        "picnicFacilities": false,
        "publicRestrooms": false,
        "boardwalks": false,
        "ampleParking": false,
        "sharkFree": false,
        "warmWater": true,
        "boatRamp": false
      },
      "region": "Outer Cape",
      "town": "Truro"
    },
    {
      "name": "Corn Hill Beach",
      "address": "Corn Hill Road, Truro, MA 02666",
      "latitude": 41.9947,
      "longitude": -70.0564,
      "filters": {
        "petFriendly": false,
        "lifeguards": false,
        "waterSports": true,
        "softSand": true,
        "rockyShores": false,
        "quietSpots": true,
        "familyAreas": false,
        "picnicFacilities": false,
        "publicRestrooms": false,
        "boardwalks": false,
        "ampleParking": false,
        "sharkFree": false,
        "warmWater": true,
        "boatRamp": false
      },
      "region": "Outer Cape",
      "town": "Truro"
    },
    {
      "name": "Head of the Meadow Beach",
      "address": "Head of the Meadow Road, Truro, MA 02666",
      "latitude": 42.0328,
      "longitude": -70.0942,
      "filters": {
        "petFriendly": false,
        "lifeguards": true,
        "waterSports": true,
        "softSand": true,
        "rockyShores": false,
        "quietSpots": false,
        "familyAreas": true,
        "picnicFacilities": false,
        "publicRestrooms": true,
        "boardwalks": false,
        "ampleParking": true,
        "sharkFree": false,
        "warmWater": true,
        "boatRamp": false
      },
      "region": "Outer Cape",
      "town": "Truro"
    },
    {
      "name": "Coast Guard Beach",
      "address": "Ocean View Drive, Truro, MA 02666",
      "latitude": 41.9458,
      "longitude": -70.0314,
      "filters": {
        "petFriendly": false,
        "lifeguards": false,
        "waterSports": true,
        "softSand": true,
        "rockyShores": false,
        "quietSpots": true,
        "familyAreas": false,
        "picnicFacilities": false,
        "publicRestrooms": false,
        "boardwalks": false,
        "ampleParking": false,
        "sharkFree": false,
        "warmWater": true,
        "boatRamp": false
      },
      "region": "Outer Cape",
      "town": "Truro"
    },
    {
      "name": "Great Hollow Beach",
      "address": "Great Hollow Road, Truro, MA 02666",
      "latitude": 41.9836,
      "longitude": -70.0422,
      "filters": {
        "petFriendly": false,
        "lifeguards": false,
        "waterSports": false,
        "softSand": true,
        "rockyShores": false,
        "quietSpots": true,
        "familyAreas": false,
        "picnicFacilities": false,
        "publicRestrooms": false,
        "boardwalks": false,
        "ampleParking": false,
        "sharkFree": true,
        "warmWater": true,
        "boatRamp": false
      },
      "region": "Outer Cape",
      "town": "Truro"
    },
    {
      "name": "Jetties Beach",
      "address": "Bathing Beach Road, Nantucket, MA 02554",
      "latitude": 41.2889,
      "longitude": -70.0958,
      "filters": {
        "petFriendly": false,
        "lifeguards": true,
        "waterSports": true,
        "softSand": true,
        "rockyShores": false,
        "quietSpots": false,
        "familyAreas": true,
        "picnicFacilities": true,
        "publicRestrooms": true,
        "boardwalks": false,
        "ampleParking": false,
        "sharkFree": true,
        "warmWater": true,
        "boatRamp": false
      },
      "region": "The Islands",
      "town": "Nantucket"
    },
    {
      "name": "Surfside Beach",
      "address": "Surfside Road, Nantucket, MA 02554",
      "latitude": 41.2547,
      "longitude": -70.0994,
      "filters": {
        "petFriendly": false,
        "lifeguards": true,
        "waterSports": true,
        "softSand": true,
        "rockyShores": false,
        "quietSpots": false,
        "familyAreas": true,
        "picnicFacilities": false,
        "publicRestrooms": true,
        "boardwalks": false,
        "ampleParking": true,
        "sharkFree": true,
        "warmWater": true,
        "boatRamp": false
      },
      "region": "The Islands",
      "town": "Nantucket"
    },
    {
      "name": "Madaket Beach",
      "address": "Madaket Road, Nantucket, MA 02554",
      "latitude": 41.2733,
      "longitude": -70.2092,
      "filters": {
        "petFriendly": false,
        "lifeguards": false,
        "waterSports": true,
        "softSand": true,
        "rockyShores": false,
        "quietSpots": true,
        "familyAreas": false,
        "picnicFacilities": false,
        "publicRestrooms": false,
        "boardwalks": false,
        "ampleParking": false,
        "sharkFree": true,
        "warmWater": true,
        "boatRamp": false
      },
      "region": "The Islands",
      "town": "Nantucket"
    },
    {
      "name": "Cisco Beach",
      "address": "Hummock Pond Road, Nantucket, MA 02554",
      "latitude": 41.2597,
      "longitude": -70.1617,
      "filters": {
        "petFriendly": false,
        "lifeguards": false,
        "waterSports": true,
        "softSand": true,
        "rockyShores": false,
        "quietSpots": true,
        "familyAreas": false,
        "picnicFacilities": false,
        "publicRestrooms": false,
        "boardwalks": false,
        "ampleParking": false,
        "sharkFree": true,
        "warmWater": true,
        "boatRamp": false
      },
      "region": "The Islands",
      "town": "Nantucket"
    },
    {
      "name": "Siasconset Beach",
      "address": "Siasconset Beach, Nantucket, MA 02564",
      "latitude": 41.2694,
      "longitude": -69.9586,
      "filters": {
        "petFriendly": false,
        "lifeguards": false,
        "waterSports": false,
        "softSand": true,
        "rockyShores": false,
        "quietSpots": true,
        "familyAreas": true,
        "picnicFacilities": false,
        "publicRestrooms": false,
        "boardwalks": false,
        "ampleParking": false,
        "sharkFree": true,
        "warmWater": true,
        "boatRamp": false
      },
      "region": "The Islands",
      "town": "Nantucket"
    },
    {
      "name": "South Beach",
      "address": "Katama Road, Edgartown, MA 02539",
      "latitude": 41.3531,
      "longitude": -70.5136,
      "filters": {
        "petFriendly": false,
        "lifeguards": true,
        "waterSports": true,
        "softSand": true,
        "rockyShores": false,
        "quietSpots": false,
        "familyAreas": true,
        "picnicFacilities": false,
        "publicRestrooms": true,
        "boardwalks": false,
        "ampleParking": true,
        "sharkFree": true,
        "warmWater": true,
        "boatRamp": false
      },
      "region": "The Islands",
      "town": "Martha's Vineyard"
    },
    {
      "name": "Joseph Sylvia State Beach",
      "address": "Beach Road, Oak Bluffs, MA 02557",
      "latitude": 41.4486,
      "longitude": -70.5764,
      "filters": {
        "petFriendly": false,
        "lifeguards": true,
        "waterSports": false,
        "softSand": true,
        "rockyShores": false,
        "quietSpots": false,
        "familyAreas": true,
        "picnicFacilities": false,
        "publicRestrooms": true,
        "boardwalks": false,
        "ampleParking": true,
        "sharkFree": true,
        "warmWater": true,
        "boatRamp": false
      },
      "region": "The Islands",
      "town": "Martha's Vineyard"
    },
    {
      "name": "Menemsha Beach",
      "address": "Basin Road, Chilmark, MA 02535",
      "latitude": 41.3353,
      "longitude": -70.7692,
      "filters": {
        "petFriendly": false,
        "lifeguards": false,
        "waterSports": false,
        "softSand": true,
        "rockyShores": false,
        "quietSpots": true,
        "familyAreas": true,
        "picnicFacilities": false,
        "publicRestrooms": true,
        "boardwalks": false,
        "ampleParking": true,
        "sharkFree": true,
        "warmWater": true,
        "boatRamp": false
      },
      "region": "The Islands",
      "town": "Martha's Vineyard"
    },
    {
      "name": "Lighthouse Beach",
      "address": "Lighthouse Road, Edgartown, MA 02539",
      "latitude": 41.3911,
      "longitude": -70.5122,
      "filters": {
        "petFriendly": false,
        "lifeguards": false,
        "waterSports": false,
        "softSand": true,
        "rockyShores": false,
        "quietSpots": true,
        "familyAreas": false,
        "picnicFacilities": false,
        "publicRestrooms": false,
        "boardwalks": false,
        "ampleParking": false,
        "sharkFree": true,
        "warmWater": true,
        "boatRamp": false
      },
      "region": "The Islands",
      "town": "Martha's Vineyard"
    },
    {
      "name": "Lambert's Cove Beach",
      "address": "Lambert's Cove Road, West Tisbury, MA 02575",
      "latitude": 41.4222,
      "longitude": -70.6617,
      "filters": {
        "petFriendly": false,
        "lifeguards": false,
        "waterSports": false,
        "softSand": true,
        "rockyShores": false,
        "quietSpots": true,
        "familyAreas": false,
        "picnicFacilities": false,
        "publicRestrooms": false,
        "boardwalks": false,
        "ampleParking": false,
        "sharkFree": true,
        "warmWater": true,
        "boatRamp": false
      },
      "region": "The Islands",
      "town": "Martha's Vineyard"
    }
  ]
}
